[
  {
    "nome": "Museo Egizio",
    "citta": "Torino",
    "indirizzo": "Via Accademia delle Scienze, 6, 10123 Torino TO",
    "codiceIsil": "IT-TO0576",
    "immagineCopertina": "https://upload.wikimedia.org/wikipedia/commons/5/56/Donald_Trump_official_portrait.jpg",
    "descrizioneBreve": "Il più antico museo del mondo dedicato interamente alla cultura egizia.",
    "curatoreId": "a3f7k2m9qz",
    "mappaEmbed": "https://www.openstreetmap.org/export/embed.html?bbox=7.681%2C45.066%2C7.692%2C45.070&layer=mapnik&marker=45.0680%2C7.6866",
    "mappaLink": "https://www.openstreetmap.org/?mlat=45.0680&mlon=7.6866&zoom=17",
    "gpsBounds": {
      "latMin": 45.0675,
      "latMax": 45.0689,
      "lngMin": 7.6854,
      "lngMax": 7.6878
    },
    "sale": [
      {
        "nome": "Sala Colonne (Piano 1)",
        "piano": "Piano 1",
        "latMin": 45.0683,
        "latMax": 45.0689,
        "lngMin": 7.6854,
        "lngMax": 7.6878
      },
      {
        "nome": "Sala dei Papiri (Piano 1)",
        "piano": "Piano 1",
        "latMin": 45.0675,
        "latMax": 45.0683,
        "lngMin": 7.6854,
        "lngMax": 7.6878
      },
      {
        "nome": "Sala di Kha e Merit (Piano 2)",
        "piano": "Piano 2",
        "latMin": 45.0675,
        "latMax": 45.0689,
        "lngMin": 7.6854,
        "lngMax": 7.6878
      }
    ],
    "mappaInterna": [
      {
        "piano": "Piano -1",
        "url": "https://upload.wikimedia.org/wikipedia/commons/thumb/0/0f/Museo_Egizio_Map_Floor_-1.svg/960px-Museo_Egizio_Map_Floor_-1.svg.png",
        "gpsBounds": {
          "latMin": 45.0675,
          "latMax": 45.0689,
          "lngMin": 7.6854,
          "lngMax": 7.6878
        }
      },
      {
        "piano": "Piano 1",
        "url": "https://upload.wikimedia.org/wikipedia/commons/thumb/7/71/Museo_Egizio_Map_Floor_1.svg/1280px-Museo_Egizio_Map_Floor_1.svg.png",
        "gpsBounds": {
          "latMin": 45.0675,
          "latMax": 45.0689,
          "lngMin": 7.6854,
          "lngMax": 7.6878
        }
      },
      {
        "piano": "Piano 2",
        "url": "https://upload.wikimedia.org/wikipedia/commons/thumb/3/34/Museo_Egizio_Map_Floor_2.svg/960px-Museo_Egizio_Map_Floor_2.svg.png",
        "gpsBounds": {
          "latMin": 45.0675,
          "latMax": 45.0689,
          "lngMin": 7.6854,
          "lngMax": 7.6878
        }
      }
    ]
  },
  {
    "nome": "Galleria degli Uffizi",
    "citta": "Firenze",
    "indirizzo": "Piazzale degli Uffizi, 6, 50122 Firenze FI",
    "codiceIsil": "IT-FI0082",
    "immagineCopertina": "https://upload.wikimedia.org/wikipedia/commons/5/56/Donald_Trump_official_portrait.jpg",
    "descrizioneBreve": "Uno dei più importanti musei italiani e tra i più conosciuti al mondo.",
    "curatoreId": "b8h4p1r6xw",
    "mappaEmbed": "https://www.openstreetmap.org/export/embed.html?bbox=11.250%2C43.766%2C11.261%2C43.770&layer=mapnik&marker=43.7677%2C11.2552",
    "mappaLink": "https://www.openstreetmap.org/?mlat=43.7677&mlon=11.2552&zoom=17",
    "gpsBounds": {
      "latMin": 43.767,
      "latMax": 43.7686,
      "lngMin": 11.2533,
      "lngMax": 11.2571
    },
    "sale": [
      {
        "nome": "Sala del Botticelli (Sala 10-14)",
        "piano": "Piano 2",
        "latMin": 43.767,
        "latMax": 43.7686,
        "lngMin": 11.2533,
        "lngMax": 11.2551
      },
      {
        "nome": "Sala di Leonardo (Sala 15)",
        "piano": "Piano 2",
        "latMin": 43.767,
        "latMax": 43.7686,
        "lngMin": 11.2551,
        "lngMax": 11.2571
      }
    ],
    "mappaInterna": [
      {
        "piano": "Piano 1",
        "url": "/data/maps/uffizi/piantina_uffizi_piano1.png",
        "gpsBounds": {
          "latMin": 43.767,
          "latMax": 43.7686,
          "lngMin": 11.2533,
          "lngMax": 11.2571
        },
        "geoJsonUrl": "/data/maps/uffizi/P1uffizi.geojson",
        "imgWidth": 437,
        "imgHeight": 600
      },
      {
        "piano": "Piano 2",
        "url": "/data/maps/uffizi/piantina_uffizi_piano2.png",
        "gpsBounds": {
          "latMin": 43.767,
          "latMax": 43.7686,
          "lngMin": 11.2533,
          "lngMax": 11.2571
        },
        "geoJsonUrl": "/data/maps/uffizi/P2uffizi.geojson",
        "imgWidth": 437,
        "imgHeight": 600
      }
    ]
  }
]